[{"id":8871, "lng":-73.90165, "lat":40.8837, "address":"5765 Broadway", "city":"Bronx", "region":"43", "postalcode":"10001", "phone_1":"(212) 555-1001", "cosRadLat":0.7560397049201084, "radLon":-1.2898271151564675, "sinRadLat":0.6545257554782052, "store_pic":"download.jpg", "store_name":"Demo Store name", "operation_hours":"Mo, Tu, We, Th, Fr\r\n07:00 - 18:00\r\nSa, Su \r\n10:00 - 18:00", "description":"TEst description", "country":"US"},
 {"id":9146, "lng":-73.984727, "lat":40.758805, "address":"1560 Broadway", "city":"Manhattan", "region":"43", "postalcode":"10001", "phone_1":"(212) 555-1001", "cosRadLat":0.7574646617741722, "radLon":-1.2912770823391468, "sinRadLat":0.65287616449319, "store_pic":"download.jpg", "store_name":"Demo Store name", "operation_hours":"Mo, Tu, We, Th, Fr\r\n07:00 - 18:00\r\nSa, Su \r\n10:00 - 18:00", "description":"TEst description", "country":"US"},
 {"id":9147, "lng":-73.950572, "lat":40.826617, "address":"3543 49 Broadway", "city":"Manhattan", "region":"43", "postalcode":"10001", "phone_1":"(212) 555-1001", "cosRadLat":0.7566914246360652, "radLon":-1.290680965133128, "sinRadLat":0.6537721987682269, "store_pic":"download.jpg", "store_name":"Demo Store name", "operation_hours":"Mo, Tu, We, Th, Fr\r\n07:00 - 18:00\r\nSa, Su \r\n10:00 - 18:00", "description":"TEst description", "country":"US"},
 {"id":9148, "lng":-73.986806, "lat":40.750863, "address":"972 6th Ave", "city":"Manhattan", "region":"43", "postalcode":"10001", "phone_1":"(212) 555-1001", "cosRadLat":0.7575551523057567, "radLon":-1.2913133677342958, "sinRadLat":0.652771162977503, "store_pic":"download.jpg", "store_name":"Demo Store name", "operation_hours":"Mo, Tu, We, Th, Fr\r\n07:00 - 18:00\r\nSa, Su \r\n10:00 - 18:00", "description":"TEst description", "country":"US"},
 {"id":9149, "lng":-73.993015, "lat":40.752521, "address":"490  8th Ave", "city":"Manhattan", "region":"43", "postalcode":"10001", "phone_1":"(212) 555-1001", "cosRadLat":0.7575362623845368, "radLon":-1.291421735227552, "sinRadLat":0.6527930845011045, "store_pic":"download.jpg", "store_name":"Demo Store name", "operation_hours":"Mo, Tu, We, Th, Fr\r\n07:00 - 18:00\r\nSa, Su \r\n10:00 - 18:00", "description":"TEst description", "country":"US"},
 {"id":9150, "lng":-74.006099, "lat":40.71443, "address":"809/811 6th Ave/28th", "city":"Manhattan", "region":"43", "postalcode":"10001", "phone_1":"(212) 555-1001", "cosRadLat":0.7579700805132459, "radLon":-1.2916500941068831, "sinRadLat":0.6522893200465141, "store_pic":"download.jpg", "store_name":"Demo Store name", "operation_hours":"Mo, Tu, We, Th, Fr\r\n07:00 - 18:00\r\nSa, Su \r\n10:00 - 18:00", "description":"TEst description", "country":"US"},
 {"id":9151, "lng":-73.98367, "lat":40.76221, "address":"1651 Broadway", "city":"Manhattan", "region":"43", "postalcode":"10001", "phone_1":"(212) 555-1001", "cosRadLat":0.7574258610109109, "radLon":-1.2912586342089531, "sinRadLat":0.6529211782994025, "store_pic":"download.jpg", "store_name":"Demo Store name", "operation_hours":"Mo, Tu, We, Th, Fr\r\n07:00 - 18:00\r\nSa, Su \r\n10:00 - 18:00", "description":"TEst description", "country":"US"},
 {"id":9152, "lng":-73.98005, "lat":40.73738, "address":"336 E 23rd St", "city":"Manhattan", "region":"43", "postalcode":"10001", "phone_1":"(212) 555-1001", "cosRadLat":0.757708743229505, "radLon":-1.2911954532900312, "sinRadLat":0.6525928749485119, "store_pic":"download.jpg", "store_name":"Demo Store name", "operation_hours":"Mo, Tu, We, Th, Fr\r\n07:00 - 18:00\r\nSa, Su \r\n10:00 - 18:00", "description":"TEst description", "country":"US"},
 {"id":9153, "lng":-73.9779, "lat":40.75623, "address":"14 E 47th St", "city":"Manhattan", "region":"43", "postalcode":"10001", "phone_1":"(212) 555-1001", "cosRadLat":0.7574940027187937, "radLon":-1.2911579287111132, "sinRadLat":0.6528421216841482, "store_pic":"download.jpg", "store_name":"Demo Store name", "operation_hours":"Mo, Tu, We, Th, Fr\r\n07:00 - 18:00\r\nSa, Su \r\n10:00 - 18:00", "description":"TEst description", "country":"US"},
 {"id":9154, "lng":-73.97364, "lat":40.74812, "address":"729 2nd Ave/39th St", "city":"Manhattan", "region":"43", "postalcode":"10001", "phone_1":"(212) 555-1001", "cosRadLat":0.7575864024532148, "radLon":-1.2910835776849783, "sinRadLat":0.6527348947451758, "store_pic":"download.jpg", "store_name":"Demo Store name", "operation_hours":"Mo, Tu, We, Th, Fr\r\n07:00 - 18:00\r\nSa, Su \r\n10:00 - 18:00", "description":"TEst description", "country":"US"},
 {"id":9155, "lng":-73.97002, "lat":40.78961, "address":"638 Columbus Ave", "city":"Manhattan", "region":"43", "postalcode":"10001", "phone_1":"(212) 555-1001", "cosRadLat":0.7571135343069267, "radLon":-1.291020396766056, "sinRadLat":0.6532833199839668, "store_pic":"download.jpg", "store_name":"Demo Store name", "operation_hours":"Mo, Tu, We, Th, Fr\r\n07:00 - 18:00\r\nSa, Su \r\n10:00 - 18:00", "description":"TEst description", "country":"US"},
 {"id":9156, "lng":-73.99696, "lat":40.74765, "address":"335 8th Ave", "city":"Manhattan", "region":"43", "postalcode":"10001", "phone_1":"(212) 555-1001", "cosRadLat":0.7575917568430621, "radLon":-1.2914905884665433, "sinRadLat":0.6527286802059816, "store_pic":"download.jpg", "store_name":"Demo Store name", "operation_hours":"Mo, Tu, We, Th, Fr\r\n07:00 - 18:00\r\nSa, Su \r\n10:00 - 18:00", "description":"TEst description", "country":"US"},
 {"id":9157, "lng":-73.92719, "lat":40.86512, "address":"208 Dyckman St", "city":"Manhattan", "region":"43", "postalcode":"10001", "phone_1":"(212) 555-1001", "cosRadLat":0.7562519161998194, "radLon":-1.2902728722474268, "sinRadLat":0.6542805508679754, "store_pic":"download.jpg", "store_name":"Demo Store name", "operation_hours":"Mo, Tu, We, Th, Fr\r\n07:00 - 18:00\r\nSa, Su \r\n10:00 - 18:00", "description":"TEst description", "country":"US"},
 {"id":9195, "lng":-73.98592, "lat":40.72649, "address":"102 1st Ave", "city":"Manhattan", "region":"43", "postalcode":"10001", "phone_1":"(212) 555-1001", "cosRadLat":0.7578327654919551, "radLon":-1.2912979041171229, "sinRadLat":0.6524488482224605, "store_pic":"download.jpg", "store_name":"Demo Store name", "operation_hours":"Mo, Tu, We, Th, Fr\r\n07:00 - 18:00\r\nSa, Su \r\n10:00 - 18:00", "description":"TEst description", "country":"US"},
 {"id":9196, "lng":-73.98824, "lat":40.71873, "address":"114 Delancey St", "city":"Manhattan", "region":"43", "postalcode":"10001", "phone_1":"(212) 555-1001", "cosRadLat":0.7579211246145707, "radLon":-1.2913383957557694, "sinRadLat":0.6523462032256985, "store_pic":"download.jpg", "store_name":"Demo Store name", "operation_hours":"Mo, Tu, We, Th, Fr\r\n07:00 - 18:00\r\nSa, Su \r\n10:00 - 18:00", "description":"TEst description", "country":"US"},
 {"id":9197, "lng":-74.001914, "lat":40.649906, "address":"1188 6th Ave", "city":"Manhattan", "region":"43", "postalcode":"10001", "phone_1":"(212) 555-1001", "cosRadLat":0.7587041794109617, "radLon":-1.291577052077687, "sinRadLat":0.651435313860355, "store_pic":"download.jpg", "store_name":"Demo Store name", "operation_hours":"Mo, Tu, We, Th, Fr\r\n07:00 - 18:00\r\nSa, Su \r\n10:00 - 18:00", "description":"TEst description", "country":"US"},
 {"id":9199, "lng":-73.95724, "lat":40.76593, "address":"1286 1st Ave", "city":"Manhattan", "region":"43", "postalcode":"10001", "phone_1":"(212) 555-1001", "cosRadLat":0.7573834676920471, "radLon":-1.290797343687651, "sinRadLat":0.6529703537426258, "store_pic":"download.jpg", "store_name":"Demo Store name", "operation_hours":"Mo, Tu, We, Th, Fr\r\n07:00 - 18:00\r\nSa, Su \r\n10:00 - 18:00", "description":"TEst description", "country":"US"},
 {"id":9200, "lng":-73.741877, "lat":40.668428, "address":"139th & Adam Clayton Powell", "city":"Manhattan", "region":"43", "postalcode":"10001", "phone_1":"(212) 555-1001", "cosRadLat":0.7584935503526594, "radLon":-1.2870385502506785, "sinRadLat":0.6516805460295848, "store_pic":"download.jpg", "store_name":"Demo Store name", "operation_hours":"Mo, Tu, We, Th, Fr\r\n07:00 - 18:00\r\nSa, Su \r\n10:00 - 18:00", "description":"TEst description", "country":"US"},
 {"id":9202, "lng":-73.95458, "lat":40.77773, "address":"1499 3rd Ave & 85th St", "city":"Manhattan", "region":"43", "postalcode":"10001", "phone_1":"(212) 555-1001", "cosRadLat":0.7572489731362441, "radLon":-1.2907509179295482, "sinRadLat":0.6531263221491719, "store_pic":"download.jpg", "store_name":"Demo Store name", "operation_hours":"Mo, Tu, We, Th, Fr\r\n07:00 - 18:00\r\nSa, Su \r\n10:00 - 18:00", "description":"TEst description", "country":"US"},
 {"id":9203, "lng":-73.98927, "lat":40.75058, "address":"151 W 34th St", "city":"Manhattan", "region":"43", "postalcode":"10001", "phone_1":"(212) 555-1001", "cosRadLat":0.7575583765172298, "radLon":-1.291356372647065, "sinRadLat":0.6527674211911768, "store_pic":"download.jpg", "store_name":"Demo Store name", "operation_hours":"Mo, Tu, We, Th, Fr\r\n07:00 - 18:00\r\nSa, Su \r\n10:00 - 18:00", "description":"TEst description", "country":"US"},
 {"id":9204, "lng":-73.99747, "lat":40.74184, "address":"154 W 14th & 7th Ave", "city":"Manhattan", "region":"43", "postalcode":"10001", "phone_1":"(212) 555-1001", "cosRadLat":0.757657942005184, "radLon":-1.2914994896457286, "sinRadLat":0.652651854296354, "store_pic":"download.jpg", "store_name":"Demo Store name", "operation_hours":"Mo, Tu, We, Th, Fr\r\n07:00 - 18:00\r\nSa, Su \r\n10:00 - 18:00", "description":"TEst description", "country":"US"},
 {"id":9205, "lng":-74.01012, "lat":40.70938, "address":"160 Broadway", "city":"Manhattan", "region":"43", "postalcode":"10001", "phone_1":"(212) 555-1001", "cosRadLat":0.7580275697803915, "radLon":-1.2917202737961058, "sinRadLat":0.6522225106915842, "store_pic":"download.jpg", "store_name":"Demo Store name", "operation_hours":"Mo, Tu, We, Th, Fr\r\n07:00 - 18:00\r\nSa, Su \r\n10:00 - 18:00", "description":"TEst description", "country":"US"},
 {"id":9206, "lng":-74.01057, "lat":40.71628, "address":"167 Chambers St", "city":"Manhattan", "region":"43", "postalcode":"10001", "phone_1":"(212) 555-1001", "cosRadLat":0.7579490186149633, "radLon":-1.2917281277777397, "sinRadLat":0.6523137934925292, "store_pic":"download.jpg", "store_name":"Demo Store name", "operation_hours":"Mo, Tu, We, Th, Fr\r\n07:00 - 18:00\r\nSa, Su \r\n10:00 - 18:00", "description":"TEst description", "country":"US"},
 {"id":9207, "lng":-73.98024, "lat":40.75306, "address":"18 E 42nd St", "city":"Manhattan", "region":"43", "postalcode":"10001", "phone_1":"(212) 555-1001", "cosRadLat":0.7575301213145298, "radLon":-1.2911987694156097, "sinRadLat":0.6528002108617872, "store_pic":"download.jpg", "store_name":"Demo Store name", "operation_hours":"Mo, Tu, We, Th, Fr\r\n07:00 - 18:00\r\nSa, Su \r\n10:00 - 18:00", "description":"TEst description", "country":"US"},
 {"id":9210, "lng":-73.94608, "lat":40.78992, "address":"1872 3rd Ave", "city":"Manhattan", "region":"43", "postalcode":"10001", "phone_1":"(212) 555-1001", "cosRadLat":0.7571099996929316, "radLon":-1.2906025649431285, "sinRadLat":0.6532874163528402, "store_pic":"download.jpg", "store_name":"Demo Store name", "operation_hours":"Mo, Tu, We, Th, Fr\r\n07:00 - 18:00\r\nSa, Su \r\n10:00 - 18:00", "description":"TEst description", "country":"US"},
 {"id":9211, "lng":-73.94283, "lat":40.79382, "address":"1997 3rd Ave", "city":"Manhattan", "region":"43", "postalcode":"10001", "phone_1":"(212) 555-1001", "cosRadLat":0.7570655300751621, "radLon":-1.2905458417424387, "sinRadLat":0.6533389496823327, "store_pic":"download.jpg", "store_name":"Demo Store name", "operation_hours":"Mo, Tu, We, Th, Fr\r\n07:00 - 18:00\r\nSa, Su \r\n10:00 - 18:00", "description":"TEst description", "country":"US"},
 {"id":9212, "lng":-73.98236, "lat":40.77755, "address":"2049 Broadway", "city":"Manhattan", "region":"43", "postalcode":"10001", "phone_1":"(212) 555-1001", "cosRadLat":0.7572510249893628, "radLon":-1.291235770395752, "sinRadLat":0.6531239431781378, "store_pic":"download.jpg", "store_name":"Demo Store name", "operation_hours":"Mo, Tu, We, Th, Fr\r\n07:00 - 18:00\r\nSa, Su \r\n10:00 - 18:00", "description":"TEst description", "country":"US"},
 {"id":9213, "lng":-74.0052, "lat":40.72867, "address":"208 Varick St", "city":"Manhattan", "region":"43", "postalcode":"10001", "phone_1":"(212) 555-1001", "cosRadLat":0.7578079404537045, "radLon":-1.2916344035969076, "sinRadLat":0.6524776819059137, "store_pic":"download.jpg", "store_name":"Demo Store name", "operation_hours":"Mo, Tu, We, Th, Fr\r\n07:00 - 18:00\r\nSa, Su \r\n10:00 - 18:00", "description":"TEst description", "country":"US"},
 {"id":9214, "lng":-73.98924, "lat":40.71284, "address":"213 Madison St", "city":"Manhattan", "region":"43", "postalcode":"10001", "phone_1":"(212) 555-1001", "cosRadLat":0.7579881817295194, "radLon":-1.2913558490482893, "sinRadLat":0.6522682855684285, "store_pic":"download.jpg", "store_name":"Demo Store name", "operation_hours":"Mo, Tu, We, Th, Fr\r\n07:00 - 18:00\r\nSa, Su \r\n10:00 - 18:00", "description":"TEst description", "country":"US"},
 {"id":9215, "lng":-73.94893, "lat":40.80938, "address":"215 W 125th St", "city":"Manhattan", "region":"43", "postalcode":"10001", "phone_1":"(212) 555-1001", "cosRadLat":0.756888072789885, "radLon":-1.2906523068268105, "sinRadLat":0.6535445243198154, "store_pic":"download.jpg", "store_name":"Demo Store name", "operation_hours":"Mo, Tu, We, Th, Fr\r\n07:00 - 18:00\r\nSa, Su \r\n10:00 - 18:00", "description":"TEst description", "country":"US"},
 {"id":9216, "lng":-73.98779, "lat":40.75624, "address":"220 W 42nd St", "city":"Manhattan", "region":"43", "postalcode":"10001", "phone_1":"(212) 555-1001", "cosRadLat":0.7574938887763369, "radLon":-1.2913305417741354, "sinRadLat":0.6528422538917824, "store_pic":"download.jpg", "store_name":"Demo Store name", "operation_hours":"Mo, Tu, We, Th, Fr\r\n07:00 - 18:00\r\nSa, Su \r\n10:00 - 18:00", "description":"TEst description", "country":"US"},
 {"id":9217, "lng":-73.979, "lat":40.78559, "address":"2271 Broadway", "city":"Manhattan", "region":"43", "postalcode":"10001", "phone_1":"(212) 555-1001", "cosRadLat":0.7571593682617789, "radLon":-1.2911771273328851, "sinRadLat":0.6532301975976187, "store_pic":"download.jpg", "store_name":"Demo Store name", "operation_hours":"Mo, Tu, We, Th, Fr\r\n07:00 - 18:00\r\nSa, Su \r\n10:00 - 18:00", "description":"TEst description", "country":"US"},
 {"id":9218, "lng":-73.97231, "lat":40.79439, "address":"2549 Broadway", "city":"Manhattan", "region":"43", "postalcode":"10001", "phone_1":"(212) 555-1001", "cosRadLat":0.7570590303756908, "radLon":-1.2910603648059265, "sinRadLat":0.6533464812231095, "store_pic":"download.jpg", "store_name":"Demo Store name", "operation_hours":"Mo, Tu, We, Th, Fr\r\n07:00 - 18:00\r\nSa, Su \r\n10:00 - 18:00", "description":"TEst description", "country":"US"},
 {"id":9219, "lng":-73.99705, "lat":40.71495, "address":"26 Bowery", "city":"Manhattan", "region":"43", "postalcode":"10001", "phone_1":"(212) 555-1001", "cosRadLat":0.757964160491948, "radLon":-1.29149215926287, "sinRadLat":0.6522961991378889, "store_pic":"download.jpg", "store_name":"Demo Store name", "operation_hours":"Mo, Tu, We, Th, Fr\r\n07:00 - 18:00\r\nSa, Su \r\n10:00 - 18:00", "description":"TEst description", "country":"US"},
 {"id":9220, "lng":-74.00105, "lat":40.71862, "address":"262 Canal St", "city":"Manhattan", "region":"43", "postalcode":"10001", "phone_1":"(212) 555-1001", "cosRadLat":0.757922377027976, "radLon":-1.29156197243295, "sinRadLat":0.6523447481203958, "store_pic":"download.jpg", "store_name":"Demo Store name", "operation_hours":"Mo, Tu, We, Th, Fr\r\n07:00 - 18:00\r\nSa, Su \r\n10:00 - 18:00", "description":"TEst description", "country":"US"},
 {"id":9221, "lng":-73.98962, "lat":40.72973, "address":"27 3rd Ave & St Marks Pl", "city":"Manhattan", "region":"43", "postalcode":"10001", "phone_1":"(212) 555-1001", "cosRadLat":0.7577958691671426, "radLon":-1.2913624812994469, "sinRadLat":0.65249170161253, "store_pic":"download.jpg", "store_name":"Demo Store name", "operation_hours":"Mo, Tu, We, Th, Fr\r\n07:00 - 18:00\r\nSa, Su \r\n10:00 - 18:00", "description":"TEst description", "country":"US"},
 {"id":9222, "lng":-73.967846, "lat":40.79998, "address":"2726 Broadway", "city":"Manhattan", "region":"43", "postalcode":"10001", "phone_1":"(212) 555-1001", "cosRadLat":0.7569952837385292, "radLon":-1.2909824533081176, "sinRadLat":0.6534203397489428, "store_pic":"download.jpg", "store_name":"Demo Store name", "operation_hours":"Mo, Tu, We, Th, Fr\r\n07:00 - 18:00\r\nSa, Su \r\n10:00 - 18:00", "description":"TEst description", "country":"US"},
 {"id":9223, "lng":-73.98038, "lat":40.75147, "address":"280 Madison Ave", "city":"Manhattan", "region":"43", "postalcode":"10001", "phone_1":"(212) 555-1001", "cosRadLat":0.7575482367085684, "radLon":-1.2912012128765624, "sinRadLat":0.6527791885926961, "store_pic":"download.jpg", "store_name":"Demo Store name", "operation_hours":"Mo, Tu, We, Th, Fr\r\n07:00 - 18:00\r\nSa, Su \r\n10:00 - 18:00", "description":"TEst description", "country":"US"},
 {"id":9224, "lng":-74.00516, "lat":40.71563, "address":"317 Broadway", "city":"Manhattan", "region":"43", "postalcode":"10001", "phone_1":"(212) 555-1001", "cosRadLat":0.7579564188314329, "radLon":-1.2916337054652067, "sinRadLat":0.6523051947916936, "store_pic":"download.jpg", "store_name":"Demo Store name", "operation_hours":"Mo, Tu, We, Th, Fr\r\n07:00 - 18:00\r\nSa, Su \r\n10:00 - 18:00", "description":"TEst description", "country":"US"},
 {"id":9225, "lng":-73.98471, "lat":40.74796, "address":"341 5th Ave", "city":"Manhattan", "region":"43", "postalcode":"10001", "phone_1":"(212) 555-1001", "cosRadLat":0.75758822522995, "radLon":-1.2912767856331742, "sinRadLat":0.652732779162296, "store_pic":"download.jpg", "store_name":"Demo Store name", "operation_hours":"Mo, Tu, We, Th, Fr\r\n07:00 - 18:00\r\nSa, Su \r\n10:00 - 18:00", "description":"TEst description", "country":"US"},
 {"id":9226, "lng":-73.95318, "lat":40.82225, "address":"3410 Broadway 138th St", "city":"Manhattan", "region":"43", "postalcode":"10001", "phone_1":"(212) 555-1001", "cosRadLat":0.7567412519930284, "radLon":-1.2907264833200203, "sinRadLat":0.6537145229624503, "store_pic":"download.jpg", "store_name":"Demo Store name", "operation_hours":"Mo, Tu, We, Th, Fr\r\n07:00 - 18:00\r\nSa, Su \r\n10:00 - 18:00", "description":"TEst description", "country":"US"},
 {"id":9227, "lng":-73.95293, "lat":40.81075, "address":"354 W 125th St", "city":"Manhattan", "region":"43", "postalcode":"10001", "phone_1":"(212) 555-1001", "cosRadLat":0.7568724456633681, "radLon":-1.2907221199968901, "sinRadLat":0.6535626220918328, "store_pic":"download.jpg", "store_name":"Demo Store name", "operation_hours":"Mo, Tu, We, Th, Fr\r\n07:00 - 18:00\r\nSa, Su \r\n10:00 - 18:00", "description":"TEst description", "country":"US"},
 {"id":9228, "lng":-73.99077, "lat":40.73669, "address":"39 Union Sq W", "city":"Manhattan", "region":"43", "postalcode":"10001", "phone_1":"(212) 555-1001", "cosRadLat":0.7577166022016567, "radLon":-1.2913825525858447, "sinRadLat":0.652583749987675, "store_pic":"download.jpg", "store_name":"Demo Store name", "operation_hours":"Mo, Tu, We, Th, Fr\r\n07:00 - 18:00\r\nSa, Su \r\n10:00 - 18:00", "description":"TEst description", "country":"US"},
 {"id":9229, "lng":-73.98398, "lat":40.74316, "address":"401 Park Ave S", "city":"Manhattan", "region":"43", "postalcode":"10001", "phone_1":"(212) 555-1001", "cosRadLat":0.7576429057847968, "radLon":-1.2912640447296344, "sinRadLat":0.6526693093090632, "store_pic":"download.jpg", "store_name":"Demo Store name", "operation_hours":"Mo, Tu, We, Th, Fr\r\n07:00 - 18:00\r\nSa, Su \r\n10:00 - 18:00", "description":"TEst description", "country":"US"},
 {"id":9230, "lng":-73.98248, "lat":40.73117, "address":"404 E 14th St", "city":"Manhattan", "region":"43", "postalcode":"10001", "phone_1":"(212) 555-1001", "cosRadLat":0.7577794700227213, "radLon":-1.2912378647908545, "sinRadLat":0.6525107468939372, "store_pic":"download.jpg", "store_name":"Demo Store name", "operation_hours":"Mo, Tu, We, Th, Fr\r\n07:00 - 18:00\r\nSa, Su \r\n10:00 - 18:00", "description":"TEst description", "country":"US"},
 {"id":9231, "lng":-73.982786, "lat":40.669271, "address":"405 6th Ave", "city":"Manhattan", "region":"43", "postalcode":"10001", "phone_1":"(212) 555-1001", "cosRadLat":0.7584839620128407, "radLon":-1.2912432054983656, "sinRadLat":0.6516917057699165, "store_pic":"download.jpg", "store_name":"Demo Store name", "operation_hours":"Mo, Tu, We, Th, Fr\r\n07:00 - 18:00\r\nSa, Su \r\n10:00 - 18:00", "description":"TEst description", "country":"US"},
 {"id":9232, "lng":-73.93592, "lat":40.85012, "address":"4259 Broadway", "city":"Manhattan", "region":"43", "postalcode":"10001", "phone_1":"(212) 555-1001", "cosRadLat":0.7564231805291844, "radLon":-1.2904252394911258, "sinRadLat":0.6540825421597131, "store_pic":"download.jpg", "store_name":"Demo Store name", "operation_hours":"Mo, Tu, We, Th, Fr\r\n07:00 - 18:00\r\nSa, Su \r\n10:00 - 18:00", "description":"TEst description", "country":"US"},
 {"id":9233, "lng":-73.99946, "lat":40.75443, "address":"427 10th Ave & 34th", "city":"Manhattan", "region":"43", "postalcode":"10001", "phone_1":"(212) 555-1001", "cosRadLat":0.7575145119851163, "radLon":-1.2915342216978432, "sinRadLat":0.6528183239860467, "store_pic":"download.jpg", "store_name":"Demo Store name", "operation_hours":"Mo, Tu, We, Th, Fr\r\n07:00 - 18:00\r\nSa, Su \r\n10:00 - 18:00", "description":"TEst description", "country":"US"},
 {"id":9234, "lng":-73.984134, "lat":40.663558, "address":"429 7th Ave", "city":"Manhattan", "region":"43", "postalcode":"10001", "phone_1":"(212) 555-1001", "cosRadLat":0.7585489388524348, "radLon":-1.2912667325366824, "sinRadLat":0.6516160735938341, "store_pic":"download.jpg", "store_name":"Demo Store name", "operation_hours":"Mo, Tu, We, Th, Fr\r\n07:00 - 18:00\r\nSa, Su \r\n10:00 - 18:00", "description":"TEst description", "country":"US"},
 {"id":9235, "lng":-73.942034, "lat":40.812221, "address":"444 Lenox Ave @ 132nd", "city":"Manhattan", "region":"43", "postalcode":"10001", "phone_1":"(212) 555-1001", "cosRadLat":0.75685566598226, "radLon":-1.290531948921593, "sinRadLat":0.6535820536631569, "store_pic":"download.jpg", "store_name":"Demo Store name", "operation_hours":"Mo, Tu, We, Th, Fr\r\n07:00 - 18:00\r\nSa, Su \r\n10:00 - 18:00", "description":"TEst description", "country":"US"},
 {"id":9236, "lng":-73.97468, "lat":40.75304, "address":"451 Lexington Ave", "city":"Manhattan", "region":"43", "postalcode":"10001", "phone_1":"(212) 555-1001", "cosRadLat":0.7575303491847443, "radLon":-1.291101729109199, "sinRadLat":0.6527999464338515, "store_pic":"download.jpg", "store_name":"Demo Store name", "operation_hours":"Mo, Tu, We, Th, Fr\r\n07:00 - 18:00\r\nSa, Su \r\n10:00 - 18:00", "description":"TEst description", "country":"US"},
 {"id":9237, "lng":-74.00481, "lat":40.70826, "address":"52 Fulton St", "city":"Manhattan", "region":"43", "postalcode":"10001", "phone_1":"(212) 555-1001", "cosRadLat":0.7580403190774642, "radLon":-1.2916275968128248, "sinRadLat":0.6522076928808309, "store_pic":"download.jpg", "store_name":"Demo Store name", "operation_hours":"Mo, Tu, We, Th, Fr\r\n07:00 - 18:00\r\nSa, Su \r\n10:00 - 18:00", "description":"TEst description", "country":"US"},
 {"id":9238, "lng":-73.909695, "lat":40.874817, "address":"5201 Broadway @ 225th", "city":"Manhattan", "region":"43", "postalcode":"10001", "phone_1":"(212) 555-1001", "cosRadLat":0.75614117193397, "radLon":-1.2899675268947903, "sinRadLat":0.6544085330329383, "store_pic":"download.jpg", "store_name":"Demo Store name", "operation_hours":"Mo, Tu, We, Th, Fr\r\n07:00 - 18:00\r\nSa, Su \r\n10:00 - 18:00", "description":"TEst description", "country":"US"},
 {"id":9239, "lng":-73.99672, "lat":40.7378, "address":"541 6th Ave & 14th St", "city":"Manhattan", "region":"43", "postalcode":"10001", "phone_1":"(212) 555-1001", "cosRadLat":0.7577039594535234, "radLon":-1.2914863996763384, "sinRadLat":0.6525984292261615, "store_pic":"download.jpg", "store_name":"Demo Store name", "operation_hours":"Mo, Tu, We, Th, Fr\r\n07:00 - 18:00\r\nSa, Su \r\n10:00 - 18:00", "description":"TEst description", "country":"US"},
 {"id":9240, "lng":-73.98808, "lat":40.75468, "address":"556 7th Ave", "city":"Manhattan", "region":"43", "postalcode":"10001", "phone_1":"(212) 555-1001", "cosRadLat":0.7575116635206126, "radLon":-1.291335603228966, "sinRadLat":0.6528216292604238, "store_pic":"download.jpg", "store_name":"Demo Store name", "operation_hours":"Mo, Tu, We, Th, Fr\r\n07:00 - 18:00\r\nSa, Su \r\n10:00 - 18:00", "description":"TEst description", "country":"US"},
 {"id":9242, "lng":-74.01223, "lat":40.70287, "address":"6 Water St", "city":"Manhattan", "region":"43", "postalcode":"10001", "phone_1":"(212) 555-1001", "cosRadLat":0.7581016710183109, "radLon":-1.2917571002433228, "sinRadLat":0.6521363786810583, "store_pic":"download.jpg", "store_name":"Demo Store name", "operation_hours":"Mo, Tu, We, Th, Fr\r\n07:00 - 18:00\r\nSa, Su \r\n10:00 - 18:00", "description":"TEst description", "country":"US"},
 {"id":9243, "lng":-73.95853, "lat":40.8158, "address":"600 W 125th St", "city":"Manhattan", "region":"43", "postalcode":"10001", "phone_1":"(212) 555-1001", "cosRadLat":0.7568148382844602, "radLon":-1.2908198584350017, "sinRadLat":0.6536293296299259, "store_pic":"download.jpg", "store_name":"Demo Store name", "operation_hours":"Mo, Tu, We, Th, Fr\r\n07:00 - 18:00\r\nSa, Su \r\n10:00 - 18:00", "description":"TEst description", "country":"US"},
 {"id":9244, "lng":-73.92124, "lat":40.86744, "address":"608 W 207th St", "city":"Manhattan", "region":"43", "postalcode":"10001", "phone_1":"(212) 555-1001", "cosRadLat":0.7562254226882226, "radLon":-1.290169025156933, "sinRadLat":0.6543111722109131, "store_pic":"download.jpg", "store_name":"Demo Store name", "operation_hours":"Mo, Tu, We, Th, Fr\r\n07:00 - 18:00\r\nSa, Su \r\n10:00 - 18:00", "description":"TEst description", "country":"US"},
 {"id":9245, "lng":-73.99332, "lat":40.74191, "address":"686 6th Ave", "city":"Manhattan", "region":"43", "postalcode":"10001", "phone_1":"(212) 555-1001", "cosRadLat":0.7576571446399577, "radLon":-1.2914270584817706, "sinRadLat":0.6526527799496652, "store_pic":"download.jpg", "store_name":"Demo Store name", "operation_hours":"Mo, Tu, We, Th, Fr\r\n07:00 - 18:00\r\nSa, Su \r\n10:00 - 18:00", "description":"TEst description", "country":"US"},
 {"id":9246, "lng":-73.98892, "lat":40.75816, "address":"688 8th Ave", "city":"Manhattan", "region":"43", "postalcode":"10001", "phone_1":"(212) 555-1001", "cosRadLat":0.7574720113971234, "radLon":-1.2913502639946828, "sinRadLat":0.6528676373890776, "store_pic":"download.jpg", "store_name":"Demo Store name", "operation_hours":"Mo, Tu, We, Th, Fr\r\n07:00 - 18:00\r\nSa, Su \r\n10:00 - 18:00", "description":"TEst description", "country":"US"},
 {"id":9247, "lng":-73.99332, "lat":40.72925, "address":"724 Broadway", "city":"Manhattan", "region":"43", "postalcode":"10001", "phone_1":"(212) 555-1001", "cosRadLat":0.7578013354422469, "radLon":-1.2914270584817706, "sinRadLat":0.6524853530938048, "store_pic":"download.jpg", "store_name":"Demo Store name", "operation_hours":"Mo, Tu, We, Th, Fr\r\n07:00 - 18:00\r\nSa, Su \r\n10:00 - 18:00", "description":"TEst description", "country":"US"},
 {"id":9248, "lng":-73.98924, "lat":40.76336, "address":"735 9th Ave", "city":"Manhattan", "region":"43", "postalcode":"10001", "phone_1":"(212) 555-1001", "cosRadLat":0.7574127558903799, "radLon":-1.2913558490482893, "sinRadLat":0.6529363806792663, "store_pic":"download.jpg", "store_name":"Demo Store name", "operation_hours":"Mo, Tu, We, Th, Fr\r\n07:00 - 18:00\r\nSa, Su \r\n10:00 - 18:00", "description":"TEst description", "country":"US"},
 {"id":9250, "lng":-73.94449, "lat":40.80752, "address":"79 W 125th St", "city":"Manhattan", "region":"43", "postalcode":"10001", "phone_1":"(212) 555-1001", "cosRadLat":0.7569092884880458, "radLon":-1.2905748142080218, "sinRadLat":0.6535199530240222, "store_pic":"download.jpg", "store_name":"Demo Store name", "operation_hours":"Mo, Tu, We, Th, Fr\r\n07:00 - 18:00\r\nSa, Su \r\n10:00 - 18:00", "description":"TEst description", "country":"US"},
 {"id":9251, "lng":-73.97073, "lat":40.75615, "address":"824 3rd Ave 50th St ", "city":"Manhattan", "region":"43", "postalcode":"10001", "phone_1":"(212) 555-1001", "cosRadLat":0.7574949142576168, "radLon":-1.2910327886037452, "sinRadLat":0.652841064022359, "store_pic":"download.jpg", "store_name":"Demo Store name", "operation_hours":"Mo, Tu, We, Th, Fr\r\n07:00 - 18:00\r\nSa, Su \r\n10:00 - 18:00", "description":"TEst description", "country":"US"},
 {"id":9253, "lng":-73.98334, "lat":40.76591, "address":"946 8th Ave & 56th", "city":"Manhattan", "region":"43", "postalcode":"10001", "phone_1":"(212) 555-1001", "cosRadLat":0.7573836956216528, "radLon":-1.2912528746224217, "sinRadLat":0.6529700893658817, "store_pic":"download.jpg", "store_name":"Demo Store name", "operation_hours":"Mo, Tu, We, Th, Fr\r\n07:00 - 18:00\r\nSa, Su \r\n10:00 - 18:00", "description":"TEst description", "country":"US"},
 {"id":9254, "lng":-73.96712, "lat":40.76087, "address":"966 3rd Ave", "city":"Manhattan", "region":"43", "postalcode":"10001", "phone_1":"(212) 555-1001", "cosRadLat":0.7574411309403498, "radLon":-1.290969782217748, "sinRadLat":0.6529034638901863, "store_pic":"download.jpg", "store_name":"Demo Store name", "operation_hours":"Mo, Tu, We, Th, Fr\r\n07:00 - 18:00\r\nSa, Su \r\n10:00 - 18:00", "description":"TEst description", "country":"US"},
 {"id":9255, "lng":-73.96481, "lat":40.756, "address":"969 1st Ave", "city":"Manhattan", "region":"43", "postalcode":"10001", "phone_1":"(212) 555-1001", "cosRadLat":0.7574966233889299, "radLon":-1.290929465112027, "sinRadLat":0.6528390809030735, "store_pic":"download.jpg", "store_name":"Demo Store name", "operation_hours":"Mo, Tu, We, Th, Fr\r\n07:00 - 18:00\r\nSa, Su \r\n10:00 - 18:00", "description":"TEst description", "country":"US"},
 {"id":9256, "lng":-73.9916, "lat":40.74969, "address":"Penn Station/Lower Level", "city":"Manhattan", "region":"43", "postalcode":"10001", "phone_1":"(212) 555-1001", "cosRadLat":0.7575685161431017, "radLon":-1.2913970388186364, "sinRadLat":0.6527556536321527, "store_pic":"download.jpg", "store_name":"Demo Store name", "operation_hours":"Mo, Tu, We, Th, Fr\r\n07:00 - 18:00\r\nSa, Su \r\n10:00 - 18:00", "description":"TEst description", "country":"US"},
 {"id":9258, "lng":-74.0006, "lat":40.73051, "address":"136 W 3rd St", "city":"Manhattan", "region":"43", "postalcode":"10001", "phone_1":"(212) 555-1001", "cosRadLat":0.7577869863566646, "radLon":-1.291554118451316, "sinRadLat":0.6525020178577873, "store_pic":"download.jpg", "store_name":"Demo Store name", "operation_hours":"Mo, Tu, We, Th, Fr\r\n07:00 - 18:00\r\nSa, Su \r\n10:00 - 18:00", "description":"TEst description", "country":"US"},
 {"id":9259, "lng":-73.9397, "lat":40.79858, "address":"2142 3rd Ave", "city":"Manhattan", "region":"43", "postalcode":"10001", "phone_1":"(212) 555-1001", "cosRadLat":0.7570112495834048, "radLon":-1.2904912129368513, "sinRadLat":0.6534018426697097, "store_pic":"download.jpg", "store_name":"Demo Store name", "operation_hours":"Mo, Tu, We, Th, Fr\r\n07:00 - 18:00\r\nSa, Su \r\n10:00 - 18:00", "description":"TEst description", "country":"US"},
 {"id":9260, "lng":-73.94432, "lat":40.83438, "address":"3794 Broadway", "city":"Manhattan", "region":"43", "postalcode":"10001", "phone_1":"(212) 555-1001", "cosRadLat":0.756602838154587, "radLon":-1.2905718471482934, "sinRadLat":0.6538747168199914, "store_pic":"download.jpg", "store_name":"Demo Store name", "operation_hours":"Mo, Tu, We, Th, Fr\r\n07:00 - 18:00\r\nSa, Su \r\n10:00 - 18:00", "description":"TEst description", "country":"US"},
 {"id":9261, "lng":-73.939111, "lat":40.842518, "address":"4040 Broadway & 170", "city":"Manhattan", "region":"43", "postalcode":"10001", "phone_1":"(212) 555-1001", "cosRadLat":0.7565099574966424, "radLon":-1.290480932947557, "sinRadLat":0.6539821742283412, "store_pic":"download.jpg", "store_name":"Demo Store name", "operation_hours":"Mo, Tu, We, Th, Fr\r\n07:00 - 18:00\r\nSa, Su \r\n10:00 - 18:00", "description":"TEst description", "country":"US"},
 {"id":9262, "lng":-73.97894, "lat":40.74487, "address":"480 3rd Ave & 33rd St", "city":"Manhattan", "region":"43", "postalcode":"10001", "phone_1":"(212) 555-1001", "cosRadLat":0.7576234264468515, "radLon":-1.2911760801353338, "sinRadLat":0.6526919209695582, "store_pic":"download.jpg", "store_name":"Demo Store name", "operation_hours":"Mo, Tu, We, Th, Fr\r\n07:00 - 18:00\r\nSa, Su \r\n10:00 - 18:00", "description":"TEst description", "country":"US"}]